     3.03           OBSERVATION DATA    M (Mixed)       RINEX VERSION / TYPE
demo                                                        MARKER NAME
G    6 C1C L1C S1C C5Q L5Q S5Q                              SYS / # / OBS TYPES
E    6 C1C L1C S1C C5Q L5Q S5Q                              SYS / # / OBS TYPES
R    3 C1C L1C S1C                                          SYS / # / OBS TYPES
                                                            END OF HEADER
> 2023 09 15 10 00  0.0000000  0 10
G01  21999999.280   115610776.530          41.654    21999999.280    86332722.727          43.833  
G02  21999992.513   115610740.963          42.665    21999992.513    86332696.177          43.599  
G05  22000001.161   115610786.413          44.327    22000001.161    86332730.106          44.985  
G12  21999994.927   115610753.649          42.493    21999994.927    86332705.645          45.967  
G17  22000002.659   115610794.286          39.093    22000002.659    86332735.998          43.532  
E01  21999998.797   115610773.994          42.753    21999998.797    86332720.823          44.372  
E07  22000002.841   115610795.233          38.971    22000002.841    86332736.696          40.070  
E11  22000004.380   115610803.334          43.329    22000004.380    86332742.733          42.171  
R03  21999999.569   115610778.051          41.412  
R05  22000001.749   115610789.496          43.300  
> 2023 09 15 10 00 30.0000000  0 10
G01  21999997.650   115610767.983          42.999    21999997.650    86332716.326          43.625  
G02  21999994.506   115610751.440          43.537    21999994.506    86332704.002          46.133  
G05  22000007.132   115610817.781          41.812    22000007.132    86332753.551          41.866  
G12  21999992.782   115610742.372          42.067    21999992.782    86332697.236          44.380  
G17  22000002.904   115610795.563          46.643    22000002.904    86332736.945          44.930  
E01  21999995.842   115610758.458          43.905    21999995.842    86332709.246          43.150  
E07  21999996.383   115610761.289          41.413    21999996.383    86332711.354          41.238  
E11  22000002.079   115610791.235          44.387    22000002.079    86332733.714          43.972  
R03  22000005.424   115610808.800          43.787  
R05  22000001.905   115610790.340          44.454  
> 2023 09 15 10 01  0.0000000  0 10
G01  22000007.965   115610822.155          42.230    22000007.965    86332756.811          43.226  
G02  22000007.117   115610817.683          43.633    22000007.117    86332753.489          45.033  
G05  22000002.779   115610794.914          40.900    22000002.779    86332736.479          43.059  
G12  21999994.724   115610752.581          41.144    21999994.724    86332704.849          46.043  
G17  22000000.489   115610782.866          39.517    22000000.489    86332727.482          44.330  
E01  22000000.016   115610780.406          46.567    22000000.016    86332725.604          44.421  
E07  21999999.389   115610777.083          42.646    21999999.389    86332723.168          46.619  
E11  22000002.957   115610795.847          45.067    22000002.957    86332737.153          45.069  
R03  21999993.759   115610747.533          42.391  
R05  22000001.602   115610788.730          38.862  
> 2023 09 15 10 01 30.0000000  0 10
G01  22000007.241   115610818.362          41.912    22000007.241    86332753.974          42.324  
G02  22000002.458   115610793.228          40.599    22000002.458    86332735.209          45.700  
G05  22000006.370   115610813.807          43.219    22000006.370    86332750.556          44.430  
G12  21999998.520   115610772.533          42.224    21999998.520    86332719.753          46.224  
G17  22000005.979   115610811.730          40.974    22000005.979    86332749.019          41.410  
E01  21999996.960   115610764.323          43.742    21999996.960    86332713.630          44.911  
E07  21999999.019   115610775.155          39.034    21999999.019    86332721.700          44.679  
E11  22000002.615   115610794.053          42.976    22000002.615    86332735.826          43.134  
R03  21999996.437   115610761.606          42.762  
R05  22000003.476   115610798.596          41.388  
> 2023 09 15 10 02  0.0000000  0 10
G01  22000011.205   115610839.185          41.116    22000011.205    86332769.518          44.526  
G02  22000000.312   115610781.929          41.435    22000000.312    86332726.801          44.304  
G05  21999999.165   115610775.924          45.486    21999999.165    86332722.310          42.489  
G12  21999995.651   115610757.461          39.009    21999995.651    86332708.497          43.180  
G17  22000006.452   115610814.209          41.486    22000006.452    86332750.886          41.597  
E01  22000002.328   115610792.558          38.086    22000002.328    86332734.713          43.947  
E07  22000002.808   115610795.059          42.619    22000002.808    86332736.576          42.140  
E11  22000002.516   115610793.519          43.160    22000002.516    86332735.421          43.283  
R03  21999994.215   115610749.906          43.287  
R05  22000007.610   115610820.296          42.143  
> 2023 09 15 10 02 30.0000000  0 10
G01  21999996.628   115610762.594          45.055    21999996.628    86332712.356          45.491  
G02  21999999.838   115610779.457          43.241    21999999.838    86332724.944          44.461  
G05  22000007.533   115610819.899          39.201    22000007.533    86332755.124          43.400  
G12  21999993.258   115610744.877          37.489    21999993.258    86332699.096          41.140  
G17  22000001.726   115610789.359          40.461    22000001.726    86332732.332          42.164  
E01  22000001.850   115610790.030          43.986    22000001.850    86332732.829          45.186  
E07  21999999.318   115610776.720          40.678    21999999.318    86332722.858          43.219  
E11  22000000.782   115610784.409          42.500    22000000.782    86332728.626          43.457  
R03  22000008.584   115610825.414          42.077  
R05  21999993.676   115610747.095          41.749  
> 2023 09 15 10 03  0.0000000  0 10
G01  22000005.170   115610807.466          40.574    22000005.170    86332745.847          45.005  
G02  22000002.094   115610791.317          40.467    22000002.094    86332733.752          46.999  
G05  22000002.764   115610794.840          41.185    22000002.764    86332736.407          44.002  
G12  21999989.804   115610726.743          39.683    21999989.804    86332685.564          45.159  
G17  22000009.016   115610827.668          37.889    22000009.016    86332760.951          45.154  
E01  22000001.267   115610786.972          39.718    22000001.267    86332730.507          47.015  
E07  22000001.467   115610788.015          40.538    22000001.467    86332731.327          44.167  
E11  21999992.884   115610742.903          42.635    21999992.884    86332697.631          46.721  
R03  22000001.010   115610785.617          40.621  
R05  22000008.810   115610826.599          43.583  
> 2023 09 15 10 03 30.0000000  0 10
G01  22000006.155   115610812.650          41.707    22000006.155    86332749.714          44.689  
G02  21999999.420   115610777.269          43.528    21999999.420    86332723.286          43.725  
G05  21999999.417   115610777.237          40.280    21999999.417    86332723.257          42.590  
G12  22000004.329   115610803.080          41.907    22000004.329    86332742.543          46.355  
G17  21999992.260   115610739.619          41.237    21999992.260    86332695.179          43.887  
E01  22000001.435   115610787.841          41.081    22000001.435    86332731.203          42.847  
E07  21999999.202   115610776.123          40.340    21999999.202    86332722.416          43.441  
E11  22000002.409   115610792.983          43.456    22000002.409    86332735.004          45.124  
R03  22000005.664   115610810.083          40.414  
R05  22000000.010   115610780.357          39.617  
> 2023 09 15 10 04  0.0000000  0 10
G01  21999996.759   115610763.282          42.493    21999996.759    86332712.840          40.818  
G02  21999997.077   115610764.944          44.074    21999997.077    86332714.079          44.917  
G05  22000003.476   115610798.567          38.968    22000003.476    86332739.195          43.501  
G12  22000001.056   115610785.858          42.074    22000001.056    86332729.694          45.702  
G17  21999993.946   115610748.508          43.444    21999993.946    86332701.789          44.792  
E01  22000000.132   115610781.003          41.883    22000000.132    86332726.056          43.869  
E07  22000004.125   115610802.008          43.306    22000004.125    86332741.739          45.696  
E11  21999999.819   115610779.342          42.020    21999999.819    86332724.851          46.913  
R03  21999992.646   115610741.648          36.837  
R05  21999995.658   115610757.498          41.545  
> 2023 09 15 10 04 30.0000000  0 10
G01  22000006.588   115610814.931          40.014    22000006.588    86332751.409          42.853  
G02  22000007.123   115610817.737          42.241    22000007.123    86332753.503          42.188  
G05  22000003.625   115610799.368          42.768    22000003.625    86332739.776          43.821  
G12  21999999.319   115610776.728          42.362    21999999.319    86332722.879          46.292  
G17  21999994.771   115610752.832          43.372    21999994.771    86332705.016          43.119  
E01  22000005.216   115610807.729          39.336    22000005.216    86332746.010          42.834  
E07  21999999.603   115610778.234          42.149    21999999.603    86332724.011          42.502  
E11  21999990.142   115610728.491          39.102    21999990.142    86332686.866          45.212  
R03  22000000.648   115610783.714          43.384  
R05  22000006.462   115610814.260          41.009  
> 2023 09 15 10 05  0.0000000  0 10
G01  21999999.159   115610775.898          41.675    21999999.159    86332722.270          42.479  
G02  22000001.216   115610786.707          43.465    22000001.216    86332730.329          45.257  
G05  22000001.061   115610785.876          43.728    22000001.061    86332729.720          44.103  
G12  21999990.558   115610730.702          41.988    21999990.558    86332688.504          44.620  
G17  22000004.641   115610804.681          41.999    22000004.641    86332743.756          42.465  
E01  21999993.169   115610744.418          43.267    21999993.169    86332698.751          43.689  
E07  22000005.220   115610807.738          44.120    22000005.220    86332746.035          43.032  
E11  21999991.893   115610737.708          43.350    21999991.893    86332693.738          45.783  
R03  22000005.455   115610808.974          37.310  
R05  22000006.958   115610816.872          43.941  
> 2023 09 15 10 05 30.0000000  0 10
G01  21999997.439   115610766.863          39.384    21999997.439    86332715.515          46.070  
G02  21999994.528   115610751.557          46.162    21999994.528    86332704.074          46.970  
G05  21999995.668   115610757.543          42.837    21999995.668    86332708.566          42.630  
G12  21999992.466   115610740.704          46.011    21999992.466    86332695.975          46.350  
G17  21999998.583   115610772.836          39.938    21999998.583    86332719.992          43.604  
E01  22000009.014   115610827.664          39.767    22000009.014    86332760.935          43.590  
E07  21999998.873   115610774.385          45.881    21999998.873    86332721.140          44.310  
E11  21999997.469   115610767.006          39.321    21999997.469    86332715.624          44.453  
R03  22000001.877   115610790.191          40.979  
R05  22000008.687   115610825.984          41.514  
> 2023 09 15 10 06  0.0000000  0 10
G01  22000006.852   115610816.317          43.635    22000006.852    86332752.439          41.479  
G02  21999993.291   115610745.059          38.457    21999993.291    86332699.232          44.153  
G05  21999998.471   115610772.267          40.403    21999998.471    86332719.544          42.520  
G12  21999998.984   115610774.965          41.954    21999998.984    86332721.559          42.656  
G17  21999999.978   115610780.196          43.014    21999999.978    86332725.451          44.267  
E01  21999998.107   115610770.342          42.553    21999998.107    86332718.126          44.962  
E07  22000006.032   115610812.012          41.643    22000006.032    86332749.229          43.858  
E11  22000003.373   115610798.027          42.145    22000003.373    86332738.790          44.229  
R03  22000006.266   115610813.230          41.592  
R05  21999995.727   115610757.841          43.821  
> 2023 09 15 10 06 30.0000000  0 10
G01  22000000.651   115610783.725          42.595    22000000.651    86332728.114          45.594  
G02  21999995.451   115610756.408          44.518    21999995.451    86332707.705          44.949  
G05  21999996.072   115610759.667          41.345    21999996.072    86332710.142          44.753  
G12  21999993.201   115610744.568          42.362    21999993.201    86332698.872          42.962  
G17  21999990.717   115610731.528          43.397    21999990.717    86332689.119          45.278  
E01  21999995.273   115610755.471          41.698    21999995.273    86332707.013          40.364  
E07  21999998.441   115610772.117          41.011    21999998.441    86332719.446          44.273  
E11  22000000.092   115610780.794          40.620    22000000.092    86332725.932          43.308  
R03  21999998.399   115610771.872          39.895  
R05  21999993.193   115610744.528          39.533  
> 2023 09 15 10 07  0.0000000  0 10
G01  21999993.443   115610745.849          38.501    21999993.443    86332699.829          44.267  
G02  22000003.703   115610799.766          41.983    22000003.703    86332740.091          42.053  
G05  21999997.085   115610764.986          39.125    21999997.085    86332714.112          45.654  
G12  22000000.080   115610780.725          44.061    22000000.080    86332725.875          44.395  
G17  22000010.735   115610836.711          44.776    22000010.735    86332767.720          45.009  
E01  21999994.007   115610748.830          41.256    21999994.007    86332702.040          42.950  
E07  21999992.864   115610742.807          42.535    21999992.864    86332697.541          44.820  
E11  21999996.375   115610761.253          41.126    21999996.375    86332711.337          44.034  
R03  21999995.250   115610755.362          38.537  
R05  22000011.704   115610841.805          42.983  
> 2023 09 15 10 07 30.0000000  0 10
G01  21999994.112   115610749.373          46.749    21999994.112    86332702.463          42.514  
G02  21999999.454   115610777.443          40.008    21999999.454    86332723.421          43.590  
G05  22000000.284   115610781.792          39.200    22000000.284    86332726.646          44.063  
G12  21999996.512   115610761.999          39.135    21999996.512    86332711.887          44.880  
G17  21999997.134   115610765.258          41.065    21999997.134    86332714.304          45.033  
E01  21999999.287   115610776.556          46.414    21999999.287    86332722.758          43.839  
E07  22000002.899   115610795.529          39.957    22000002.899    86332736.927          43.627  
E11  22000009.385   115610829.616          43.483    22000009.385    86332762.379          43.861  
R03  22000005.254   115610807.903          40.877  
R05  22000008.714   115610826.081          37.984  
> 2023 09 15 10 08  0.0000000  0 10
G01  21999999.137   115610775.756          43.649    21999999.137    86332722.164          39.268  
G02  22000000.184   115610781.266          40.214    22000000.184    86332726.275          43.669  
G05  21999995.766   115610758.074          42.488    21999995.766    86332708.934          44.872  
G12  21999998.410   115610771.953          42.095    21999998.410    86332719.300          43.558  
G17  22000001.859   115610790.061          40.170    22000001.859    86332732.861          42.565  
E01  21999999.297   115610776.597          44.299    21999999.297    86332722.785          44.408  
E07  22000003.790   115610800.222          40.469    22000003.790    86332740.425          42.364  
E11  21999994.941   115610753.696          41.348    21999994.941    86332705.706          43.282  
R03  21999995.943   115610758.974          44.609  
R05  21999992.075   115610738.658          40.728  
> 2023 09 15 10 08 30.0000000  0 10
G01  22000000.940   115610785.255          41.611    22000000.940    86332729.275          45.926  
G02  21999991.771   115610737.074          41.957    21999991.771    86332693.269          42.400  
G05  22000003.770   115610800.101          40.445    22000003.770    86332740.367          42.882  
G12  22000002.541   115610793.670          41.478    22000002.541    86332735.537          45.400  
G17  21999991.882   115610737.653          40.572    21999991.882    86332693.709          44.293  
E01  21999994.957   115610753.813          42.254    21999994.957    86332705.773          47.308  
E07  21999999.904   115610779.805          43.535    21999999.904    86332725.191          46.706  
E11  21999995.624   115610757.307          43.180    21999995.624    86332708.395          45.356  
R03  21999996.624   115610762.586          40.390  
R05  22000004.679   115610804.885          40.536  
> 2023 09 15 10 09  0.0000000  0 10
G01  22000004.178   115610802.263          41.923    22000004.178    86332741.949          46.177  
G02  22000006.383   115610813.867          40.703    22000006.383    86332750.609          41.720  
G05  21999989.174   115610723.435          42.089    21999989.174    86332683.064          43.394  
G12  21999997.096   115610765.042          40.179    21999997.096    86332714.145          42.419  
G17  21999994.844   115610753.198          38.787    21999994.844    86332705.317          41.754  
E01  21999996.582   115610762.344          39.547    21999996.582    86332712.136          44.717  
E07  21999997.680   115610768.122          45.186    21999997.680    86332716.426          44.360  
E11  21999996.731   115610763.135          37.658    21999996.731    86332712.721          43.361  
R03  22000002.593   115610793.920          39.955  
R05  22000002.099   115610791.358          43.072  
> 2023 09 15 10 09 30.0000000  0 10
G01  21999997.745   115610768.455          36.481    21999997.745    86332716.694          46.653  
G02  22000006.605   115610815.001          44.471    22000006.605    86332751.477          44.162  
G05  21999996.893   115610763.960          39.658    21999996.893    86332713.368          45.565  
G12  22000002.297   115610792.358          46.102    22000002.297    86332734.560          44.488  
G17  22000000.323   115610781.988          42.711    22000000.323    86332726.821          45.471  
E01  22000004.849   115610805.788          45.088    22000004.849    86332744.596          46.792  
E07  22000008.559   115610825.292          44.396    22000008.559    86332759.133          45.086  
E11  21999992.764   115610742.282          43.966    21999992.764    86332697.153          43.479  
R03  21999998.035   115610769.986          42.465  
R05  21999999.613   115610778.295          40.513  
> 2023 09 15 10 10  0.0000000  0  9
G01  22000006.172   115610812.737          43.779    22000006.172    86332749.770          40.020  
G02  22000003.909   115610800.856          42.377    22000003.909    86332740.885          44.712  
G05  21999996.267   115610760.692          39.554    21999996.267    86332710.909          43.745  
G12  21999996.363   115610761.214          43.813    21999996.363    86332711.292          45.376  
E01  22000000.928   115610785.176          43.345    22000000.928    86332729.208          44.915  
E07  22000008.593   115610825.466          45.954    22000008.593    86332759.278          44.053  
E11  21999999.987   115610780.240          43.239    21999999.987    86332725.523          43.818  
R03  22000000.824   115610784.638          42.134  
R05  21999999.682   115610778.627          39.559  
> 2023 09 15 10 10 30.0000000  0  9
G01  21999994.093   115610749.269          43.833    21999994.093    86332702.373          45.124  
G02  22000002.082   115610791.245          38.070    22000002.082    86332733.727          42.355  
G05  21999999.603   115610778.218          39.991    21999999.603    86332723.987          44.200  
G12  22000001.648   115610788.973          41.580    22000001.648    86332732.028          45.795  
E01  22000001.608   115610788.746          40.310    22000001.608    86332731.895          42.597  
E07  21999994.603   115610751.943          41.580    21999994.603    86332704.369          43.459  
E11  21999990.658   115610731.216          40.004    21999990.658    86332688.889          41.914  
R03  21999996.564   115610762.262          42.432  
R05  22000001.126   115610786.221          39.349  
> 2023 09 15 10 11  0.0000000  0  9
G01  22000001.650   115610788.976          41.653    22000001.650    86332732.044          44.326  
G02  22000004.671   115610804.846          42.965    22000004.671    86332743.880          42.230  
G05  21999998.775   115610773.883          42.896    21999998.775    86332720.748          42.655  
G12  21999989.936   115610727.415          41.049    21999989.936    86332686.057          40.122  
E01  21999996.948   115610764.264          41.349    21999996.948    86332713.593          43.409  
E07  22000006.075   115610812.214          39.716    22000006.075    86332749.385          45.881  
E11  22000007.626   115610820.371          37.521    22000007.626    86332755.480          44.862  
R03  21999999.099   115610775.573          45.394  
R05  21999998.741   115610773.694          40.356  
> 2023 09 15 10 11 30.0000000  0  9
G01  21999995.285   115610755.528          41.102    21999995.285    86332707.050          44.484  
G02  21999999.915   115610779.866          40.608    21999999.915    86332725.211          42.800  
G05  22000005.827   115610810.932          42.435    22000005.827    86332748.423          42.085  
G12  22000003.811   115610800.327          44.318    22000003.811    86332740.503          43.450  
E01  21999995.095   115610754.530          40.507    21999995.095    86332706.300          44.427  
E07  21999996.309   115610760.900          42.696    21999996.309    86332711.068          43.248  
E11  21999998.678   115610773.367          39.860    21999998.678    86332720.366          45.241  
R03  22000000.655   115610783.761          43.055  
R05  22000000.402   115610782.420          42.881  
> 2023 09 15 10 12  0.0000000  0  9
G01  22000004.530   115610804.123          38.862    22000004.530    86332743.334          46.683  
G02  22000000.255   115610781.640          45.503    22000000.255    86332726.552          42.581  
G05  21999998.691   115610773.431          39.987    21999998.691    86332720.410          44.231  
G12  22000008.015   115610822.433          39.216    22000008.015    86332757.007          42.085  
E01  22000002.089   115610791.278          40.762    22000002.089    86332733.745          42.450  
E07  22000002.625   115610794.109          41.040    22000002.625    86332735.866          45.142  
E11  22000004.504   115610803.970          43.569    22000004.504    86332743.226          45.155  
R03  21999990.849   115610732.226          42.584  
R05  21999993.240   115610744.777          39.972  
> 2023 09 15 10 12 30.0000000  0  9
G01  21999994.223   115610749.928          42.094    21999994.223    86332702.892          41.467  
G02  21999993.473   115610745.997          40.880    21999993.473    86332699.939          41.874  
G05  21999997.949   115610769.530          43.965    21999997.949    86332717.516          44.674  
G12  22000005.583   115610809.656          42.823    22000005.583    86332747.481          43.391  
E01  22000003.303   115610797.673          45.541    22000003.303    86332738.505          45.390  
E07  21999994.432   115610751.044          41.901    21999994.432    86332703.715          41.496  
E11  21999996.674   115610762.827          43.066    21999996.674    86332712.514          41.973  
R03  22000001.043   115610785.800          42.581  
R05  22000006.589   115610814.937          40.770  
> 2023 09 15 10 13  0.0000000  0  9
G01  21999994.354   115610750.645          42.904    21999994.354    86332703.396          44.786  
G02  22000005.017   115610806.677          40.577    22000005.017    86332745.229          45.721  
G05  22000002.040   115610791.019          42.359    22000002.040    86332733.557          43.467  
G12  21999992.789   115610742.409          45.381    21999992.789    86332697.270          42.308  
E01  22000002.925   115610795.677          43.440    22000002.925    86332737.024          46.275  
E07  22000004.221   115610802.479          43.593    22000004.221    86332742.133          43.510  
E11  22000002.879   115610795.425          39.253    22000002.879    86332736.849          45.170  
R03  21999994.383   115610750.787          40.724  
R05  22000001.473   115610788.045          43.257  
> 2023 09 15 10 13 30.0000000  0  9
G01  22000002.691   115610794.462          45.413    22000002.691    86332736.124          45.349  
G02  22000005.286   115610808.091          38.431    22000005.286    86332746.300          45.321  
G05  21999997.364   115610766.463          41.149    21999997.364    86332715.195          44.624  
G12  22000001.091   115610786.043          40.879    22000001.091    86332729.831          42.574  
E01  21999996.705   115610762.992          40.462    21999996.705    86332712.613          44.422  
E07  21999995.795   115610758.201          41.635    21999995.795    86332709.059          44.608  
E11  21999995.880   115610758.650          47.455    21999995.880    86332709.389          42.588  
R03  21999995.488   115610756.594          43.655  
R05  21999997.411   115610766.713          42.000  
> 2023 09 15 10 14  0.0000000  0  9
G01  22000007.730   115610820.921          44.324    22000007.730    86332755.888          44.730  
G02  21999996.023   115610759.385          42.935    21999996.023    86332709.956          43.525  
G05  22000000.957   115610785.341          44.157    22000000.957    86332729.323          43.796  
G12  22000001.939   115610790.496          42.576    22000001.939    86332733.166          48.822  
E01  22000008.670   115610825.856          40.390    22000008.670    86332759.584          42.439  
E07  22000003.128   115610796.757          43.483    22000003.128    86332737.843          41.970  
E11  21999999.513   115610777.755          42.065    21999999.513    86332723.652          45.013  
R03  21999994.570   115610751.778          41.651  
R05  21999999.506   115610777.721          42.594  
> 2023 09 15 10 14 30.0000000  0  9
G01  22000000.645   115610783.711          44.231    22000000.645    86332728.088          42.865  
G02  22000000.141   115610781.055          43.112    22000000.141    86332726.109          42.129  
G05  22000005.181   115610807.541          41.566    22000005.181    86332745.887          43.455  
G12  21999994.130   115610749.461          41.612    21999994.130    86332702.512          45.901  
E01  22000003.580   115610799.120          38.293    22000003.580    86332739.604          40.820  
E07  22000001.102   115610786.086          40.214    22000001.102    86332729.882          43.774  
E11  21999991.923   115610737.848          41.702    21999991.923    86332693.856          44.392  
R03  22000003.941   115610801.021          45.098  
R05  21999993.274   115610744.954          45.192  
> 2023 09 15 10 15  0.0000000  0 10
G01  22000003.210   115610797.182          42.363    22000003.210    86332738.121          47.371  
G02  21999998.549   115610772.684          40.527    21999998.549    86332719.855          43.694  
G05  21999994.575   115610751.795          44.727    21999994.575    86332704.275          44.896  
G12  22000003.376   115610798.057          44.535    22000003.376    86332738.797          42.417  
G17  22000005.775   115610810.658          41.615    22000005.775    86332748.200          40.592  
E01  21999998.914   115610774.588          41.884    21999998.914    86332721.283          43.398  
E07  21999995.777   115610758.124          41.504    21999995.777    86332708.979          45.933  
E11  22000006.369   115610813.778          39.264    22000006.369    86332750.552          45.028  
R03  22000003.192   115610797.084          40.641  
R05  21999998.479   115610772.302          44.538  
> 2023 09 15 10 15 30.0000000  0 10
G01  21999994.698   115610752.457          37.536    21999994.698    86332704.749          45.280  
G02  21999998.695   115610773.444          45.167    21999998.695    86332720.441          45.068  
G05  21999993.784   115610747.619          40.882    21999993.784    86332701.149          42.423  
G12  22000006.112   115610812.414          39.804    22000006.112    86332749.547          43.175  
G17  22000000.006   115610780.328          42.981    22000000.006    86332725.569          43.841  
E01  22000004.186   115610802.276          41.885    22000004.186    86332741.994          45.162  
E07  21999997.530   115610767.330          46.346    21999997.530    86332715.870          43.234  
E11  21999995.621   115610757.310          43.745    21999995.621    86332708.379          43.032  
R03  22000002.478   115610793.334          40.552  
R05  21999997.241   115610765.824          43.876  
> 2023 09 15 10 16  0.0000000  0 10
G01  22000001.616   115610788.807          39.705    22000001.616    86332731.909          44.727  
G02  22000006.770   115610815.875          44.507    22000006.770    86332752.137          44.313  
G05  21999993.479   115610746.047          41.123    21999993.479    86332699.982          45.106  
G12  21999999.980   115610780.204          38.620    21999999.980    86332725.472          43.587  
G17  22000007.062   115610817.426          41.505    22000007.062    86332753.257          41.846  
E01  22000008.499   115610824.984          42.540    22000008.499    86332758.932          41.895  
E07  21999989.980   115610727.653          43.806    21999989.980    86332686.237          44.726  
E11  22000002.459   115610793.219          40.614    22000002.459    86332735.226          46.116  
R03  22000007.638   115610820.463          39.628  
R05  21999999.188   115610776.035          41.195  
> 2023 09 15 10 16 30.0000000  0 10
G01  22000002.701   115610794.489          41.585    22000002.701    86332736.140          42.700  
G02  21999994.101   115610749.312          38.559    21999994.101    86332702.407          42.910  
G05  21999995.867   115610758.575          39.964    21999995.867    86332709.323          42.510  
G12  22000003.572   115610799.072          39.191    22000003.572    86332739.596          44.026  
G17  21999991.015   115610733.086          42.387    21999991.015    86332690.301          43.499  
E01  22000000.778   115610784.400          39.862    22000000.778    86332728.621          44.639  
E07  21999996.950   115610764.262          44.941    21999996.950    86332713.592          43.705  
E11  21999999.592   115610778.160          40.235    21999999.592    86332723.964          45.400  
R03  21999999.586   115610778.140          43.501  
R05  22000004.599   115610804.479          42.044  
> 2023 09 15 10 17  0.0000000  0 10
G01  21999996.176   115610760.199          41.188    21999996.176    86332710.535          44.145  
G02  21999999.457   115610777.467          41.844    21999999.457    86332723.421          44.303  
G05  22000003.404   115610798.201          41.711    22000003.404    86332738.894          43.709  
G12  22000000.332   115610782.033          40.723    22000000.332    86332726.853          42.605  
G17  21999990.613   115610730.962          43.740    21999990.613    86332688.711          43.641  
E01  22000003.775   115610800.141          40.810    22000003.775    86332740.367          43.578  
E07  21999991.501   115610735.676          41.909    21999991.501    86332692.202          43.163  
E11  21999997.722   115610768.339          43.977    21999997.722    86332716.607          43.766  
R03  22000007.776   115610821.184          40.745  
R05  21999999.999   115610780.294          43.173  
> 2023 09 15 10 17 30.0000000  0 10
G01  21999995.273   115610755.4811         40.509    21999995.273    86332707.022          43.027  
G02  22000013.027   115610848.758          41.887    22000013.027    86332776.693          42.738  
G05  21999992.308   115610739.905          41.366    21999992.308    86332695.360          43.151  
G12  22000005.508   115610809.260          44.627    22000005.508    86332747.156          43.750  
G17  21999999.559   115610777.995          41.570    21999999.559    86332723.828          40.131  
E01  21999991.533   115610735.810          39.175    21999991.533    86332692.326          42.876  
E07  21999995.209   115610755.129          39.984    21999995.209    86332706.755          44.460  
E11  21999998.852   115610774.282          42.914    21999998.852    86332721.050          43.769  
R03  22000004.445   115610803.677          44.494  
R05  21999995.137   115610754.760          41.936  
> 2023 09 15 10 18  0.0000000  0 10
G01  21999996.654   115610762.721          44.625    21999996.654    86332712.433          42.715  
G02  22000009.767   115610831.638          40.975    22000009.767    86332763.868          45.173  
G05  21999995.224   115610755.207          39.590    21999995.224    86332706.814          43.245  
G12  22000006.388   115610813.878          42.845    22000006.388    86332750.633          47.980  
G17  22000002.072   115610791.206          45.013    22000002.072    86332733.703          43.432  
E01  21999996.396   115610761.365          41.850    21999996.396    86332711.403          44.756  
E07  22000009.164   115610828.459          41.541    22000009.164    86332761.513          46.601  
E11  22000003.986   115610801.246          41.588    22000003.986    86332741.199          42.652  
R03  21999996.669   115610762.801          42.176  
R05  21999997.437   115610766.840          40.013  
> 2023 09 15 10 18 30.0000000  0 10
G01  21999993.008   115610743.568          41.447    21999993.008    86332698.116          45.466  
G02  21999997.746   115610768.444          42.027    21999997.746    86332716.704          43.848  
G05  21999990.252   115610729.075          44.582    21999990.252    86332687.310          45.234  
G12  22000012.243   115610844.651          40.754    22000012.243    86332773.598          45.949  
G17  21999994.470   115610751.227          40.888    21999994.470    86332703.861          43.408  
E01  21999998.391   115610771.885          42.918    21999998.391    86332719.226          43.371  
E07  21999995.335   115610755.782          43.410    21999995.335    86332707.266          47.538  
E11  21999995.415   115610756.236          44.587    21999995.415    86332707.580          44.113  
R03  21999996.761   115610763.286          47.871  
R05  21999996.326   115610761.007          40.717  
> 2023 09 15 10 19  0.0000000  0 10
G01  21999996.272   115610760.730          42.394    21999996.272    86332710.927          44.956  
G02  21999993.735   115610747.399          42.057    21999993.735    86332700.954          43.069  
G05  22000002.799   115610795.023          39.869    22000002.799    86332736.540          45.908  
G12  22000002.525   115610793.575          41.326    22000002.525    86332735.470          45.014  
G17  22000000.293   115610781.863          37.038    22000000.293    86332726.719          43.230  
E01  22000000.523   115610783.062          41.748    22000000.523    86332727.612          43.497  
E07  21999995.105   115610754.573          43.323    21999995.105    86332706.342          45.849  
E11  22000002.318   115610792.484          43.446    22000002.318    86332734.646          43.369  
R03  22000001.926   115610790.417          42.858  
R05  22000003.184   115610797.038          39.558  
> 2023 09 15 10 19 30.0000000  0 10
G01  22000000.133   115610781.007          45.353    22000000.133    86332726.064          44.433  
G02  22000002.561   115610793.779          44.273    22000002.561    86332735.611          44.911  
G05  21999993.484   115610746.072          41.910    21999993.484    86332699.979          44.787  
G12  21999999.683   115610778.654          42.732    21999999.683    86332724.318          45.907  
G17  22000001.981   115610790.718          39.949    22000001.981    86332733.340          42.349  
E01  22000001.977   115610790.682          43.122    22000001.977    86332733.324          41.748  
E07  21999999.827   115610779.401          39.373    21999999.827    86332724.905          45.323  
E11  22000006.250   115610813.155          42.693    22000006.250    86332750.080          43.773  
R03  21999992.806   115610742.476          43.855  
R05  21999995.856   115610758.548          43.962  
> 2023 09 15 10 20  0.0000000  0 10
G01  21999994.621   115610752.031          44.134    21999994.621    86332704.442          43.017  
G02  21999996.201   115610760.328          43.079    21999996.201    86332710.644          45.677  
G05  22000000.071   115610780.684          42.164    22000000.071    86332725.829          45.250  
G12  21999994.441   115610751.094          38.351    21999994.441    86332703.748          43.443  
G17  21999998.111   115610770.378          46.647    21999998.111    86332718.147          43.885  
E01  21999995.147   115610754.814          42.418    21999995.147    86332706.512          40.904  
E07  22000001.053   115610785.832          42.310    22000001.053    86332729.702          42.089  
E11  22000002.473   115610793.308          40.805    22000002.473    86332735.279          44.632  
R03  22000005.552   115610809.501          42.822  
R05  21999995.647   115610757.432          39.560  
> 2023 09 15 10 20 30.0000000  0 10
G01  22000004.566   115610804.311          44.302    22000004.566    86332743.495          44.229  
G02  22000004.551   115610804.219          45.206    22000004.551    86332743.408          41.734  
G05  21999986.615   115610709.964          42.147    21999986.615    86332673.031          46.089  
G12  21999995.730   115610757.856          41.017    21999995.730    86332708.809          44.428  
G17  21999990.406   115610729.908          42.644    21999990.406    86332687.915          43.263  
E01  21999989.579   115610725.542          37.155    21999989.579    86332684.660          42.498  
E07  22000000.151   115610781.085          43.347    22000000.151    86332726.151          41.951  
E11  21999998.195   115610770.822          41.793    21999998.195    86332718.487          43.037  
R03  21999991.884   115610737.673          39.549  
R05  21999993.686   115610747.118          37.998  
> 2023 09 15 10 21  0.0000000  0 10
G01  22000011.708   115610841.833          42.453    22000011.708    86332771.511          44.728  
G02  21999999.985   115610780.234          42.127    21999999.985    86332725.516          46.041  
G05  21999991.816   115610737.309          40.889    21999991.816    86332693.434          42.644  
G12  22000003.012   115610796.158          39.662    22000003.012    86332737.390          43.858  
G17  21999990.607   115610730.945          42.729    21999990.607    86332688.685          45.240  
E01  22000003.310   115610797.701          42.202    22000003.310    86332738.567          44.829  
E07  21999995.431   115610756.305          41.008    21999995.431    86332707.611          44.772  
E11  22000006.487   115610814.393          39.084    22000006.487    86332751.003          44.010  
R03  22000005.666   115610810.076          37.306  
R05  22000007.752   115610821.024          43.551  
> 2023 09 15 10 21 30.0000000  0 10
G01  21999993.085   115610743.970          41.250    21999993.085    86332698.432          44.367  
G02  21999990.107   115610728.303          40.329    21999990.107    86332686.742          41.779  
G05  22000000.912   115610785.102          45.113    22000000.912    86332729.125          45.778  
G12  22000004.959   115610806.357          40.617    22000004.959    86332745.016          42.201  
G17  22000006.328   115610813.561          42.105    22000006.328    86332750.382          45.837  
E01  22000013.606   115610851.800          45.642    22000013.606    86332778.931          44.295  
E07  22000002.007   115610790.858          41.489    22000002.007    86332733.435          44.701  
E11  22000005.711   115610810.313          42.628    22000005.711    86332747.973          42.915  
R03  21999994.641   115610752.146          43.437  
R05  21999991.118   115610733.635          39.752  
> 2023 09 15 10 22  0.0000000  0 10
G01  21999995.397   115610756.118          43.745    21999995.397    86332707.496          44.194  
G02  22000005.182   115610807.523          38.794    22000005.182    86332745.883          45.060  
G05  22000005.061   115610806.905          43.382    22000005.061    86332745.429          44.997  
G12  21999992.296   115610739.844          41.390    21999992.296    86332695.333          44.071  
G17  22000005.192   115610807.598          40.477    22000005.192    86332745.920          47.374  
E01  22000011.727   115610841.931          39.146    22000011.727    86332771.564          42.697  
E07  22000002.636   115610794.180          42.554    22000002.636    86332735.883          44.170  
E11  22000006.832   115610816.230          40.351    22000006.832    86332752.388          46.193  
R03  21999999.047   115610775.302          39.673  
R05  22000003.678   115610799.645          40.155  
> 2023 09 15 10 22 30.0000000  0 10
G01  22000000.181   115610781.290          41.515    22000000.181    86332726.255          43.314  
G02  22000000.277   115610781.756          43.983    22000000.277    86332726.628          43.423  
G05  22000005.960   115610811.614          43.424    22000005.960    86332748.949          44.705  
G12  22000001.427   115610787.804          41.324    22000001.427    86332731.144          41.935  
G17  22000000.400   115610782.420          42.127    22000000.400    86332727.125          43.493  
E01  22000002.645   115610794.201          42.837    22000002.645    86332735.933          45.512  
E07  22000004.610   115610804.542          42.307    22000004.610    86332743.641          45.689  
E11  22000004.403   115610803.463          41.485    22000004.403    86332742.843          45.435  
R03  22000011.448   115610840.463          38.897  
R05  22000001.862   115610790.105          41.264  
> 2023 09 15 10 23  0.0000000  0 10
G01  21999994.939   115610753.716          43.095    21999994.939    86332705.695          45.011  
G02  22000007.002   115610817.109          40.903    22000007.002    86332753.036          43.450  
G05  22000004.263   115610802.698          41.432    22000004.263    86332742.280          42.028  
G12  22000003.962   115610801.135          43.585    22000003.962    86332741.102          41.276  
G17  21999994.789   115610752.935          46.382    21999994.789    86332705.134          44.396  
E01  21999997.094   115610765.026          41.206    21999997.094    86332714.154          46.234  
E07  22000000.231   115610781.514          43.940    22000000.231    86332726.472          44.608  
E11  22000004.226   115610802.510          39.898    22000004.226    86332742.126          42.968  
R03  22000005.323   115610808.272          41.352  
R05  22000007.425   115610819.316          43.497  
> 2023 09 15 10 23 30.0000000  0 10
G01  21999997.509   115610767.207          40.894    21999997.509    86332715.782          42.709  
G02  21999998.099   115610770.307          44.281    21999998.099    86332718.101          43.900  
G05  22000006.731   115610815.674          40.529    22000006.731    86332751.954          41.446  
G12  22000008.208   115610823.457          39.225    22000008.208    86332757.774          43.508  
G17  21999997.432   115610766.810          40.434    21999997.432    86332715.491          43.728  
E01  21999999.227   115610776.255          39.300    21999999.227    86332722.518          45.479  
E07  22000003.861   115610800.595          42.102    22000003.861    86332740.694          42.190  
E11  21999996.829   115610763.648          40.122    21999996.829    86332713.099          44.499  
R03  21999995.401   115610756.140          41.995  
R05  22000006.435   115610814.128          45.545  
> 2023 09 15 10 24  0.0000000  0 10
G01  21999996.729   115610763.121          42.377    21999996.729    86332712.705          42.304  
G02  22000002.926   115610795.687          41.291    22000002.926    86332737.033          45.151  
G05  22000004.217   115610802.462          39.653    22000004.217    86332742.109          43.603  
G12  21999999.622   115610778.301          42.540    21999999.622    86332724.064          44.788  
G17  22000000.580   115610783.368          44.025    22000000.580    86332727.828          44.859  
E01  22000000.503   115610782.946          41.000    22000000.503    86332727.525          43.346  
E07  21999999.048   115610775.286          40.697    21999999.048    86332721.822          44.040  
E11  22000000.887   115610784.966          42.892    22000000.887    86332729.047          43.305  
R03  21999999.227   115610776.246          45.973  
R05  21999996.066   115610759.645          40.420  
> 2023 09 15 10 24 30.0000000  0 10
G01  22000003.050   115610796.350          39.118    22000003.050    86332737.529          43.392  
G02  22000001.361   115610787.469          43.260    22000001.361    86332730.912          44.864  
G05  21999994.808   115610753.030          41.859    21999994.808    86332705.185          44.956  
G12  22000006.533   115610814.651          40.998    22000006.533    86332751.191          41.975  
G17  21999997.257   115610765.902          42.072    21999997.257    86332714.798          43.352  
E01  22000001.559   115610788.510          43.082    22000001.559    86332731.648          44.049  
E07  21999994.159   115610749.605          41.920    21999994.159    86332702.640          43.380  
E11  21999995.108   115610754.602          42.435    21999995.108    86332706.350          44.186  
R03  21999999.034   115610775.243          44.454  
R05  21999991.489   115610735.594          41.067  
> 2023 09 15 10 25  0.0000000  0 10
G01  22000002.124   115610791.469          40.287    22000002.124    86332733.889          44.193  
G02  21999993.832   115610747.906          42.928    21999993.832    86332701.337          43.955  
G05  21999994.365   115610750.700          49.293    21999994.365    86332703.447          42.680  
G12  21999995.089   115610754.503          45.455    21999995.089    86332706.302          43.902  
G17  21999996.045   115610759.511          41.025    21999996.045    86332710.037          43.482  
E01  22000002.365   115610792.747          42.367    22000002.365    86332734.840          44.984  
E07  21999998.793   115610773.979          44.441    21999998.793    86332720.816          42.955  
E11  22000003.824   115610800.402          45.653    22000003.824    86332740.557          40.603  
R03  22000008.537   115610825.155          41.186  
R05  21999998.068   115610770.154          43.010  
> 2023 09 15 10 25 30.0000000  0 10
G01  22000000.541   115610783.152          39.004    22000000.541    86332727.676          42.035  
G02  22000005.135   115610807.299          39.294    22000005.135    86332745.705          44.632  
G05  21999995.982   115610759.189          41.842    21999995.982    86332709.795          45.326  
G12  21999998.631   115610773.112          45.450    21999998.631    86332720.167          44.040  
G17  21999992.864   115610742.813          42.763    21999992.864    86332697.546          43.659  
E01  21999999.248   115610776.354          40.753    21999999.248    86332722.622          44.443  
E07  21999996.560   115610762.225          44.238    21999996.560    86332712.046          42.418  
E11  22000006.298   115610813.408          42.874    22000006.298    86332750.260          44.206  
R03  22000007.015   115610817.170          44.779  
R05  21999999.124   115610775.700          41.600  
> 2023 09 15 10 26  0.0000000  0 10
G01  22000003.649   115610799.479          41.343    22000003.649    86332739.861          43.357  
G02  22000007.801   115610821.297          43.017    22000007.801    86332756.182          45.300  
G05  22000000.726   115610784.123          44.905    22000000.726    86332728.399          43.980  
G12  22000000.387   115610782.360          42.450    22000000.387    86332727.076          46.239  
G17  22000006.095   115610812.342          36.565    22000006.095    86332749.483          43.295  
E01  22000002.116   115610791.418          41.888    22000002.116    86332733.876          43.308  
E07  22000005.611   115610809.790          44.616    22000005.611    86332747.580          44.016  
E11  21999999.877   115610779.655          41.744    21999999.877    86332725.063          43.963  
R03  21999998.788   115610773.948          39.229  
R05  21999990.863   115610732.293          42.787  
> 2023 09 15 10 26 30.0000000  0 10
G01  21999990.411   115610729.925          45.423    21999990.411    86332687.926          43.675  
G02  22000002.068   115610791.161          39.443    22000002.068    86332733.658          43.331  
G05  21999996.455   115610761.672          38.387    21999996.455    86332711.631          43.308  
G12  21999999.336   115610776.838          41.977    21999999.336    86332722.956          42.745  
G17  22000005.608   115610809.788          41.343    22000005.608    86332747.553          45.340  
E01  21999996.589   115610762.388          47.830    21999996.589    86332712.167          43.383  
E07  22000004.157   115610802.165          40.011    22000004.157    86332741.870          42.492  
E11  21999987.612   115610715.216          42.047    21999987.612    86332676.945          43.727  
R03  22000001.711   115610789.288          42.175  
R05  21999995.738   115610757.925          39.318  
> 2023 09 15 10 27  0.0000000  0 10
G01  21999996.994   115610764.522          40.926    21999996.994    86332713.764          43.340  
G02  22000008.695   115610825.986          40.061    22000008.695    86332759.660          43.662  
G05  21999999.224   115610776.214          41.329    21999999.224    86332722.511          43.231  
G12  21999998.581   115610772.837          43.830    21999998.581    86332719.989          44.826  
G17  21999997.006   115610764.568          45.065    21999997.006    86332713.801          43.956  
E01  21999992.496   115610740.855          44.549    21999992.496    86332696.103          47.179  
E07  21999999.448   115610777.420          40.811    21999999.448    86332723.386          45.826  
E11  22000010.356   115610834.735          42.066    22000010.356    86332766.188          43.637  
R03  22000007.266   115610818.488          43.233  
R05  22000001.313   115610787.201          39.413  
> 2023 09 15 10 27 30.0000000  0 10
G01  22000005.213   115610807.695          43.574    22000005.213    86332746.008          43.816  
G02  21999999.917   115610779.862          42.976    21999999.917    86332725.230          43.148  
G05  22000006.794   115610816.001          45.745    22000006.794    86332752.230          45.190  
G12  21999995.772   115610758.075          40.459    21999995.772    86332708.970          44.641  
G17  21999999.732   115610778.908          42.798    21999999.732    86332724.508          42.765  
E01  21999998.183   115610770.766          43.891    21999998.183    86332718.425          40.010  
E07  21999996.025   115610759.412          42.354    21999996.025    86332709.955          44.750  
E11  21999999.793   115610779.216          42.786    21999999.793    86332724.756          45.840  
R03  21999993.479   115610746.041          42.602  
R05  22000010.115   115610833.473          42.099  
> 2023 09 15 10 28  0.0000000  0 10
G01  22000000.492   115610782.875          43.834    22000000.492    86332727.485          45.639  
G02  21999999.918   115610779.877          39.861    21999999.918    86332725.229          41.564  
G05  21999996.377   115610761.267          41.725    21999996.377    86332711.352          43.473  
G12  21999999.849   115610779.527          45.761    21999999.849    86332724.957          45.866  
G17  21999998.533   115610772.598          40.161    21999998.533    86332719.802          44.624  
E01  22000001.513   115610788.248          42.336    22000001.513    86332731.487          43.465  
E07  22000003.583   115610799.146          41.672    22000003.583    86332739.621          43.910  
E11  21999992.626   115610741.557          41.839    21999992.626    86332696.622          42.693  
R03  22000002.547   115610793.691          45.328  
R05  22000004.810   115610805.592          39.937  
> 2023 09 15 10 28 30.0000000  0 10
G01  21999998.594   115610772.927          43.465    21999998.594    86332720.032          44.641  
G02  21999991.388   115610735.059          41.812    21999991.388    86332691.754          43.593  
G05  22000003.173   115610796.995          42.819    22000003.173    86332738.005          42.890  
G12  21999996.518   115610762.000          42.502    21999996.518    86332711.896          43.978  
G17  21999999.954   115610780.072          40.484    21999999.954    86332725.376          41.369  
E01  22000000.597   115610783.458          44.754    22000000.597    86332727.911          40.264  
E07  21999995.100   115610754.546          44.029    21999995.100    86332706.324          42.782  
E11  22000009.138   115610828.339          42.723    22000009.138    86332761.409          44.075  
R03  22000007.488   115610819.648          45.141  
R05  22000001.473   115610788.056          43.287  
> 2023 09 15 10 29  0.0000000  0 10
G01  22000007.452   115610819.473          42.559    22000007.452    86332754.800          44.486  
G02  22000003.740   115610799.956          42.395    22000003.740    86332740.226          43.734  
G05  21999998.559   115610772.736          43.979    21999998.559    86332719.900          43.495  
G12  22000002.669   115610794.322          43.298    22000002.669    86332736.028          46.962  
G17  22000002.865   115610795.364          38.630    22000002.865    86332736.790          46.612  
E01  22000004.854   115610805.805          37.604    22000004.854    86332744.602          44.318  
E07  22000001.870   115610790.158          43.585    22000001.870    86332732.895          44.617  
E11  21999998.290   115610771.329          44.452    21999998.290    86332718.807          43.902  
R03  22000002.266   115610792.211          41.850  
R05  21999989.792   115610726.667          48.298  
> 2023 09 15 10 29 30.0000000  0 10
G01  22000001.373   115610787.509          40.210    22000001.373    86332730.950          45.541  
G02  22000005.991   115610811.791          43.070    22000005.991    86332749.062          41.823  
G05  21999996.289   115610760.802          37.376    21999996.289    86332711.003          42.222  
G12  22000013.766   115610852.644          43.714    22000013.766    86332779.586          42.818  
G17  22000003.069   115610796.448          42.782    22000003.069    86332737.621          44.357  
E01  22000000.048   115610780.556          42.318    22000000.048    86332725.722          44.757  
E07  22000002.469   115610793.283          40.533    22000002.469    86332735.258          45.975  
E11  21999995.712   115610757.785          44.262    21999995.712    86332708.726          41.553  
R03  22000004.687   115610804.945          41.284  
R05  22000002.213   115610791.954          45.361  
